{"all":{"bares":[{"id":"1","name":"La parrillada del embarcadero","address":"Paseo del Embarcadero s\/n","tel":"914631024","web":null,"redsocial":null,"lat":"40.417030","lng":"-3.731240","type":"bar"},{"id":"2","name":"Ajo y Sal","address":"Calle Francisco de Sales, 41\r\n","tel":"915340039","web":"http:\/\/www.ajoysal.es\/","redsocial":"https:\/\/www.facebook.com\/pages\/Ajo-y-Sal\/378635928878877\r\n","lat":"40.445450","lng":"-3.709854","type":"bar"},{"id":"3","name":"Cougar Madrid","address":"Paseo Francisco de Sales, 41","tel":null,"web":"http:\/\/www.cougarmadrid.com","redsocial":"https:\/\/www.facebook.com\/cougarmadrid?ref=stream&fref=nf\r\n","lat":"40.444817","lng":"-3.709575","type":"bar"},{"id":"4","name":"Cervecer\u00eda Yemen","address":"Calle Gutenberg, 3","tel":null,"web":null,"redsocial":null,"lat":"40.404915","lng":"-3.681637","type":"bar"},{"id":"5","name":"La Castela","address":"Calle Doctor Castelo, 22","tel":"915735590","web":"http:\/\/www.lacastela.com","redsocial":"https:\/\/www.facebook.com\/LaCastelaMadrid","lat":"40.420311","lng":"-3.676669","type":"bar"},{"id":"6","name":"La Habana Vieja","address":"Paseo Pintor Rosales, 48","tel":"915598104","web":null,"redsocial":"https:\/\/www.facebook.com\/pages\/El-Secretario-Vinos-y-Tapas-SL\/140401662656?ref=br_tf#!\/pages\/La-Habana-Vieja\/165053040203078?rf=360642340692550","lat":"40.429096","lng":"-3.721630","type":"bar"},{"id":"7","name":"Rosales, 20","address":"Paseo Pintor Rosales, 20\r\n","tel":"915471396","web":null,"redsocial":null,"lat":"40.426147","lng":"-3.718901","type":"bar"},{"id":"8","name":"Platos Rotos","address":"Calle Ferraz, 39","tel":"915470997","web":null,"redsocial":null,"lat":"40.428673","lng":"-3.719924","type":"bar"},{"id":"9","name":"La cofrad\u00eda","address":"Calle Juan Bravo 57","tel":"914021128","web":null,"redsocial":null,"lat":"40.432526","lng":"-3.674588","type":"bar"},{"id":"10","name":"Los Casta\u00f1os","address":"Calle del Teniente Coronel Nore\u00f1a, 26","tel":"915288048","web":null,"redsocial":null,"lat":"40.388302","lng":"-3.693317","type":"bar"},{"id":"11","name":"La Barrica","address":"Calle Magdalena 11","tel":"916651368","web":"http:\/\/www.labarrica.com","redsocial":"https:\/\/es-es.facebook.com\/pages\/La-Barrica\/184991838180835","lat":"40.412445","lng":"-3.702036","type":"bar"},{"id":"12","name":"Caf\u00e9 Maritim","address":"Passeig Mar\u00edtim de la Barceloneta, 33","tel":"932247173","web":null,"redsocial":null,"lat":"41.384300","lng":"2.195262","type":"bar"},{"id":"13","name":"Versalles 1","address":"Carrer de Alfambra, 14","tel":"932039731","web":null,"redsocial":null,"lat":"41.386501","lng":"2.112575","type":"bar"},{"id":"14","name":"Bar primavera","address":"Carrer Bruc 121","tel":"930041725","web":null,"redsocial":null,"lat":"41.396801","lng":"2.166063","type":"bar"},{"id":"15","name":"El chatico","address":"Carrer de Sardenya, 96","tel":"933091868","web":null,"redsocial":null,"lat":"41.392742","lng":"2.187472","type":"bar"},{"id":"16","name":"Mona\u00b4s Bar","address":"Carrer Ricart, 40","tel":"933816117","web":null,"redsocial":null,"lat":"41.372585","lng":"2.157286","type":"bar"},{"id":"17","name":"Piper\u00b4s tavern ","address":"Carrer Buenos Aires, 42","tel":"934305154","web":null,"redsocial":null,"lat":"41.392200","lng":"2.146963","type":"bar"},{"id":"18","name":"Bodega la Peninsular","address":"Carrer del Mar, 29 ","tel":"932214089","web":null,"redsocial":null,"lat":"41.380196","lng":"2.187824","type":"bar"},{"id":"19","name":"La Llibertaria","address":"Carrer Tallers, 48","tel":null,"web":null,"redsocial":null,"lat":"41.384930","lng":"2.167645","type":"bar"},{"id":"20","name":"Colibri","address":"Carrer Riera Alta, 33","tel":null,"web":null,"redsocial":null,"lat":"41.380409","lng":"2.165784","type":"bar"},{"id":"21","name":"El Monty","address":"Plaza del Papagayo\r\n","tel":"981110116","web":null,"redsocial":"https:\/\/www.facebook.com\/MontyAmbigu?ref=br_tf\r\n","lat":"43.364697","lng":"-8.408584","type":"bar"},{"id":"22","name":"O Delito\r\n","address":"Calle Taberes, 1","tel":"981918797","web":"http:\/\/odelito.com\/blog\/","redsocial":null,"lat":"43.372944","lng":"-8.398875","type":"bar"},{"id":"25","name":"Jamoner\u00eda La Leonesa","address":"Plaza Santo Domingo, 2","tel":"981212944","web":null,"redsocial":"https:\/\/www.facebook.com\/jamonerialaleonesa\r\n","lat":"43.370026","lng":"-8.391498","type":"bar"},{"id":"26","name":"El Serrablo","address":"Calle Manuel Lasala, 44","tel":"976356206","web":"http:\/\/www.restauranteelserrablo.com","redsocial":null,"lat":"41.637684","lng":"-0.897029","type":"bar"},{"id":"27","name":"Terraza Las Ocas","address":"Parque Primo de Rivera s\/n","tel":null,"web":"http:\/\/www.lasocas.com\/","redsocial":"https:\/\/www.facebook.com\/#!\/terraza.lasocas?fref=ts","lat":"41.636181","lng":"-0.897198","type":"bar"},{"id":"28","name":"Luna Morena","address":"Avenida Ranillas s\/n (Parque de Ranillas)","tel":"976901868","web":"http:\/\/www.espaciosluna.com","redsocial":null,"lat":"41.670391","lng":"-0.896676","type":"bar"},{"id":"29","name":"Luna Nueva","address":"Plaza Expo 2008, 2 ","tel":null,"web":null,"redsocial":null,"lat":"41.661461","lng":"-0.908071","type":"bar"},{"id":"30","name":"Luna Llena","address":"Camino Cabaldos s\/n","tel":null,"web":null,"redsocial":null,"lat":"41.636883","lng":"-0.868904","type":"bar"},{"id":"31","name":"caf\u00e9 dublin","address":"Calle San Miguel, 15 local 4 (entrada calle porcell)","tel":"976218058","web":"http:\/\/www.cafedublin.es","redsocial":"https:\/\/www.facebook.com\/pages\/Cafe-Dublin\/222676182180 ; https:\/\/twitter.com\/cafedublin\r\n","lat":"41.650745","lng":"-0.879779","type":"bar"},{"id":"32","name":"Bar Hermanos Teresa","address":"Calle Del General Ricardos, 11","tel":"976425212","web":"http:\/\/www.11870.com\/pro\/bar_hnos_teresa","redsocial":null,"lat":"41.641033","lng":"-0.870602","type":"bar"},{"id":"33","name":"Bar Terraza Juan II","address":"Calle de la Moreria, 2\r\n","tel":"976214907","web":null,"redsocial":null,"lat":"41.652840","lng":"-0.883841","type":"bar"},{"id":"34","name":"Cafe bar CARVI\r\n","address":"Plaza America s\/n ","tel":"966149740","web":"http:\/\/www.cafecarvi.com","redsocial":"https:\/\/www.facebook.com\/#!\/pages\/Carvi-Cafe\/328230493864176\r\n","lat":"38.358738","lng":"-0.485869","type":"bar"},{"id":"35","name":"Cervecer\u00eda Monte Tossal","address":"Calle Escultor Ba\u00f1uls s\/n ","tel":"965201774","web":null,"redsocial":"https:\/\/www.facebook.com\/search\/web\/?q=cafeterricerveceriamonte%20tossal&form=FBDRCT&source=quickselect#!\/pages\/Cafeteria-Cerveceria-Monte-Tossal\/378324135555050","lat":"38.353050","lng":"-0.490845","type":"bar"},{"id":"36","name":"Restaurante Mediterrani -Mar de sabores-","address":"Calle Casta\u00f1os N\u00ba16 Bajo\u00a0","tel":null,"web":"http:\/\/www.mardesabores.es","redsocial":"https:\/\/www.facebook.com\/search\/web\/?q=mediterranimaardesabores&form=FBDRCT&source=quickselect#!\/restaurantemediterrani\r\n","lat":"38.344921","lng":"-0.485152","type":"bar"},{"id":"37","name":"Taberna la Vendimia","address":"Calle de Llinares, 3","tel":"965248490","web":"http:\/\/www.tabernalavendimia.com\r\n","redsocial":null,"lat":"38.360729","lng":"-0.489042","type":"bar"},{"id":"38","name":"Cerveceria el Pesebre","address":"Calle del Presbitero Baltasar Carrasco, 11\r\n","tel":"966083725","web":null,"redsocial":null,"lat":"38.351673","lng":"-0.495474","type":"bar"},{"id":"39","name":"Restaurante las M\u00e9dulas","address":"Avda. del Pintor Baeza, 2\r\n","tel":"965244481","web":null,"redsocial":null,"lat":"38.359867","lng":"-0.485655","type":"bar"},{"id":"40","name":"Cerveceria Jesus II","address":"Calle Periodista Rodolfo Salazar, 33","tel":"966145146","web":null,"redsocial":null,"lat":"38.362118","lng":"-0.476991","type":"bar"},{"id":"41","name":"Cerveceria Sento","address":"Calle Teniente Coronel Chapuli, 1 \r\n","tel":null,"web":null,"redsocial":"https:\/\/www.facebook.com\/pages\/El-Secretario-Vinos-y-Tapas-SL\/140401662656?ref=br_tf#!\/latranca.malaga\r\n","lat":"38.345234","lng":"-0.483877","type":"bar"},{"id":"42","name":"Cerveceria colimes","address":"Calle Sierra Mariola s\/n ","tel":"965182305","web":null,"redsocial":null,"lat":"38.371616","lng":"-0.487253","type":"bar"},{"id":"43","name":"Cerveceria Jesus III","address":"Calle Los Montesinos, 7 \r\n","tel":"966356149","web":null,"redsocial":null,"lat":"38.368366","lng":"-0.473783","type":"bar"},{"id":"44","name":"Cerveceria Campello","address":"Calle Hern\u00e1n Cort\u00e9s, 5\r\n","tel":"966372630","web":null,"redsocial":null,"lat":"38.393162","lng":"-0.517727","type":"bar"},{"id":"45","name":"Cerveceria Juanito Playa","address":"Calle Juan de la Cierva, 21\r\n","tel":null,"web":null,"redsocial":null,"lat":"38.392086","lng":"-0.410370","type":"bar"},{"id":"46","name":"Azafr\u00e1n Tapas\r\n","address":"Calle Ciudad de Ronda, 3. Entrada por Avenida de la Borbolla s\/n","tel":"954535543","web":"http:\/\/azafranrestaurantes.com\/tapas\/index.html\r\n","redsocial":"http:\/\/azafranrestaurantes.com\/tapas\/index.html\r\n","lat":"37.378399","lng":"-5.984404","type":"bar"},{"id":"47","name":"Bar coloniales","address":"Plz Cristo de Burgos, 19","tel":"954501137","web":null,"redsocial":null,"lat":"37.391373","lng":"-5.989631","type":"bar"},{"id":"48","name":"Taberna Los Coloniales","address":"Calle Fern\u00e1ndez Gonz\u00e1lez, 36","tel":null,"web":null,"redsocial":null,"lat":"37.386723","lng":"-5.994878","type":"bar"},{"id":"49","name":"Bar La Royal","address":"Carrer Sorn\u00ed 31\r\n","tel":"963346964","web":null,"redsocial":"https:\/\/www.facebook.com\/pages\/Favela-Bar\/113179722030507?ref=br_tf#!\/BarLaRoyal\r\n","lat":"39.470318","lng":"-0.366373","type":"bar"},{"id":"50","name":"Cervecer\u00eda Navellos","address":"Carrer de Samaniego, 6","tel":"963155120","web":"http:\/\/www.navellos.com","redsocial":null,"lat":"39.477406","lng":"-0.375261","type":"bar"},{"id":"51","name":"Favela Bar","address":"Carrer Pintor Ricardo Verde 1\r\n","tel":"962063750","web":null,"redsocial":"https:\/\/www.facebook.com\/pages\/Favela-Bar\/113179722030507?ref=br_tf ","lat":"39.472202","lng":"-0.359641","type":"bar"},{"id":"52","name":"Bar Lapaca","address":"Carrer del Rosario, 30","tel":null,"web":null,"redsocial":"https:\/\/www.facebook.com\/pages\/Favela-Bar\/113179722030507?ref=br_tf#!\/pages\/LAPACA\/132415230151813","lat":"39.853188","lng":"-0.153704","type":"bar"},{"id":"53","name":"Bar D\u00e1maso","address":"Carrer de Torrent, 29","tel":"963573867","web":null,"redsocial":null,"lat":"39.461670","lng":"-0.401470","type":"bar"},{"id":"54","name":"Bar Jurado","address":"Carrer Eslida, 7","tel":"963363819","web":"http:\/\/www.barjurado.es","redsocial":null,"lat":"39.848698","lng":"-0.159368","type":"bar"},{"id":"55","name":"La Peseta","address":"Carrer Cristo del Grao, 16","tel":null,"web":null,"redsocial":"https:\/\/www.facebook.com\/pages\/Favela-Bar\/113179722030507?ref=br_tf#!\/bodegalapeseta.elgraovalencia?fref=ts ","lat":"39.461208","lng":"-0.335294","type":"bar"},{"id":"56","name":"Los Toneles \r\n","address":"Calle C\u00e1novas del Castillo, 7\r\n","tel":null,"web":null,"redsocial":null,"lat":"37.984455","lng":"-1.125337","type":"bar"},{"id":"57","name":"El secretario de Vinos y Tapas","address":"Calle Las Norias, 2\r\n","tel":"968932995","web":null,"redsocial":"https:\/\/www.facebook.com\/pages\/El-Secretario-Vinos-y-Tapas-SL\/140401662656?ref=br_tf","lat":"37.990288","lng":"-1.140729","type":"bar"},{"id":"58","name":"Restaurante los Navarros","address":"Calle Sim\u00f3n Garc\u00eda, 20","tel":null,"web":null,"redsocial":null,"lat":"37.983822","lng":"-1.125572","type":"bar"},{"id":"59","name":"El pasaje \r\n","address":"Calle San Pedro\r\n","tel":null,"web":null,"redsocial":null,"lat":"37.984512","lng":"-1.134236","type":"bar"},{"id":"60","name":"La ca\u00f1a de Espa\u00f1a","address":"Calle Canovas del Castillo, 29 \r\n","tel":"968221402","web":null,"redsocial":null,"lat":"37.984573","lng":"-1.125281","type":"bar"},{"id":"61","name":"Bar el Huerto","address":"Avda. Patricio Valverde Espin, 5","tel":"968838226","web":null,"redsocial":null,"lat":"38.005085","lng":"-1.141327","type":"bar"},{"id":"62","name":"El bosque animado","address":"Plaza Cristo del Rescate s\/n","tel":"968901342","web":null,"redsocial":null,"lat":"37.983261","lng":"-1.127766","type":"bar"},{"id":"63","name":"Cerveria La sure\u00f1a","address":"Avda. Alfonso X El Sabio, 9","tel":null,"web":null,"redsocial":null,"lat":"38.021904","lng":"-1.099110","type":"bar"},{"id":"64","name":"Restaurante Aire Gastrobar ","address":"Avenida de Pries, 16\r\n","tel":"952609489","web":"http:\/\/www.airegastrobar.es","redsocial":"https:\/\/www.facebook.com\/pages\/El-Secretario-Vinos-y-Tapas-SL\/140401662656?ref=br_tf#!\/aire.gastrobar?fref=ts\r\n","lat":"36.721043","lng":"-4.406468","type":"bar"},{"id":"65","name":"El navegante","address":"Paseo Mar\u00edtimo Ciudad de Melilla 15\r\n","tel":"952060348","web":"http:\/\/pubelnavegante.com","redsocial":null,"lat":"36.716698","lng":"-4.411526","type":"bar"},{"id":"66","name":"Bar Casa Juan","address":"Calle del r\u00edo Roc\u00edo 18\r\n","tel":"952325211","web":null,"redsocial":null,"lat":"36.703606","lng":"-4.433380","type":"bar"},{"id":"67","name":"Bar Cafeter\u00eda El Gallo Rojo","address":"Paseo Mar\u00edtimo Ciudad de Melilla 17","tel":"952227591","web":null,"redsocial":null,"lat":"36.716923","lng":"-4.411287","type":"bar"},{"id":"68","name":"La tranca","address":"Calle Carreteria, 93\r\n","tel":null,"web":null,"redsocial":"https:\/\/www.facebook.com\/pages\/El-Secretario-Vinos-y-Tapas-SL\/140401662656?ref=br_tf#!\/latranca.malaga\r\n","lat":"36.724148","lng":"-4.421594","type":"bar"}],"error":0,"mensaje":"ok","motivacionales":[],"noticias":[{"id":"21","fecha":"2014-12-02","titulo":"Reuni\u00f3n Beer Runners en Ponferrada","minidesc":"Martes y jueves, a las 20:35","url":"20141202ponferradamartes.jpg","descripcion":"Los Beer Runners de Ponferrada se re\u00fanen todos los martes y jueves a las 20:35 en el Mercado de Abastos del mercado de Ponferrada, \u00a1y las cervezas en la Pulper\u00eda Octopus!\r\n ","tagid":"1","activo":"1","fx_update":"2014-11-28 13:05:50","id_tag":"1","tag":"Sin tag"},{"id":"17","fecha":"2014-12-03","titulo":"Quedada en Zaragoza","minidesc":"Mi\u00e9rcoles, cita Beer Runners a las 20:00","url":"20141203quedadazaragoza.jpg","descripcion":"Los mi\u00e9rcoles siempre hay cita a las 20:00 en la parada del \u2018tren' del Parque Grande Jos\u00e9 Antonio Labordeta. Despu\u00e9s de unos kil\u00f3metros por el parque y el canal a disfrutar juntos de la cerveza.","tagid":"3","activo":"1","fx_update":"2014-11-28 11:32:28","id_tag":"3","tag":"Zaragoza"},{"id":"26","fecha":"2014-12-03","titulo":"Beer Runners Logro\u00f1o","minidesc":"Los mi\u00e9rcoles, quedada a las 19:30","url":"20141203logronomiercoles.jpg","descripcion":"Todos los mi\u00e9rcoles a las 19:30 los Beer Runners riojanos tienen una cita en el Bar Nobu, para correr y luego brindar con una buena cerveza. \r\nM\u00e1s informaci\u00f3n en el grupo de facebook Beer Runners Logro\u00f1o<\/a>","tagid":"1","activo":"1","fx_update":"2014-11-28 14:09:20","id_tag":"1","tag":"Sin tag"},{"id":"22","fecha":"2014-12-04","titulo":"Reuni\u00f3n Beer Runners en Ponferrada","minidesc":"Martes y jueves, a las 20:35","url":"20141204ponferradajueves.jpg","descripcion":"Los Beer Runners de Ponferrada se re\u00fanen todos los martes y jueves a las 20:35 en el Mercado de Abastos del mercado de Ponferrada, \u00a1y las cervezas en la Pulper\u00eda Octopus!","tagid":"1","activo":"1","fx_update":"2014-11-28 13:06:20","id_tag":"1","tag":"Sin tag"},{"id":"25","fecha":"2014-12-04","titulo":"Quedada Beer Runners Pamplona","minidesc":"En La Ciudadela, los jueves a las 20:00","url":"20141204pamplonajueves.jpg","descripcion":"Nos vemos los jueves en la quedada en Pamplona a las 20:00 para hacer unas cuantas \"vueltas al castillo\". Quedamos siempre en la puerta de la Ciudadela.","tagid":"1","activo":"1","fx_update":"2014-11-28 13:22:41","id_tag":"1","tag":"Sin tag"},{"id":"15","fecha":"2014-12-09","titulo":"Quedada en Madrid","minidesc":"Todos los martes a las 20:00 en El Retiro","url":"20141209madridmartes2.jpg","descripcion":"Nos vemos todos los martes a las 20h00 en la Puerta del \u00c1ngel Ca\u00eddo, en el parque de El Retiro. Y luego, siempre nos tomamos unas cervezas en el Bar Yemen.","tagid":"4","activo":"1","fx_update":"2014-11-28 10:46:16","id_tag":"4","tag":"Madrid"},{"id":"23","fecha":"2014-12-09","titulo":"Reuni\u00f3n Beer Runners en Ponferrada","minidesc":"Martes y jueves, a las 20:35","url":"20141209ponferradamartes.jpg","descripcion":"Los Beer Runners de Ponferrada se re\u00fanen todos los martes y jueves a las 20:35 en el Mercado de Abastos del mercado de Ponferrada, \u00a1y las cervezas en la Pulper\u00eda Octopus!","tagid":"1","activo":"1","fx_update":"2014-11-28 13:09:33","id_tag":"1","tag":"Sin tag"},{"id":"19","fecha":"2014-12-10","titulo":"Quedada en Zaragoza","minidesc":"Mi\u00e9rcoles, cita Beer Runners a las 20:00","url":"20141210zaragozamiercoles.jpg","descripcion":"Los mi\u00e9rcoles siempre hay cita a las 20:00 en la parada del \u2018tren' del Parque Grande Jos\u00e9 Antonio Labordeta. Despu\u00e9s de unos kil\u00f3metros por el parque y el canal a disfrutar juntos de la cerveza.","tagid":"3","activo":"1","fx_update":"2014-11-28 11:33:15","id_tag":"3","tag":"Zaragoza"},{"id":"29","fecha":"2014-12-10","titulo":"Beer Runners Logro\u00f1o","minidesc":"Los mi\u00e9rcoles, quedada a las 19:30","url":"20141210logronomiercoles.jpg","descripcion":"Todos los mi\u00e9rcoles a las 19:30 los Beer Runners riojanos tienen una cita en el Bar Nobu, para correr y luego brindar con una buena cerveza. M\u00e1s informaci\u00f3n en el grupo de facebook Beer Runners Logro\u00f1o","tagid":"1","activo":"1","fx_update":"2014-11-28 13:33:36","id_tag":"1","tag":"Sin tag"},{"id":"24","fecha":"2014-12-11","titulo":"Reuni\u00f3n Beer Runners en Ponferrada","minidesc":"Martes y jueves, a las 20:35","url":"20141211ponferradajueves.jpg","descripcion":"Los Beer Runners de Ponferrada se re\u00fanen todos los martes y jueves a las 20:35 en el Mercado de Abastos del mercado de Ponferrada, \u00a1y las cervezas en la Pulper\u00eda Octopus!","tagid":"1","activo":"1","fx_update":"2014-12-03 10:30:57","id_tag":"1","tag":"Sin tag"},{"id":"16","fecha":"2014-12-16","titulo":"Quedada en Madrid","minidesc":"Todos los martes a las 20:00 en El Retiro","url":"20141216madridmartes3.jpg","descripcion":"Nos vemos todos los martes a las 20:00 en la Puerta del \u00c1ngel Ca\u00eddo, en el parque de El Retiro. Y luego, siempre nos tomamos unas cervezas en el Bar Yemen.","tagid":"4","activo":"1","fx_update":"2014-11-28 11:23:24","id_tag":"4","tag":"Madrid"},{"id":"27","fecha":"2014-12-16","titulo":"Reuni\u00f3n Beer Runners en Ponferrada","minidesc":"Martes y jueves, a las 20:35","url":"20141216ponferradamartes.jpg","descripcion":"Los Beer Runners de Ponferrada se re\u00fanen todos los martes y jueves a las 20:35 en el Mercado de Abastos del mercado de Ponferrada, \u00a1y las cervezas en la Pulper\u00eda Octopus!","tagid":"1","activo":"1","fx_update":"2014-11-28 13:31:54","id_tag":"1","tag":"Sin tag"},{"id":"20","fecha":"2014-12-17","titulo":"Quedada en Zaragoza","minidesc":"Mi\u00e9rcoles, cita Beer Runners a las 20:00","url":"20141217zaragozamiercoles.jpg","descripcion":"Los mi\u00e9rcoles siempre hay cita a las 20:00 en la parada del \u2018tren' del Parque Grande Jos\u00e9 Antonio Labordeta. Despu\u00e9s de unos kil\u00f3metros por el parque y el canal a disfrutar juntos de la cerveza.","tagid":"3","activo":"1","fx_update":"2014-11-28 11:32:43","id_tag":"3","tag":"Zaragoza"},{"id":"28","fecha":"2014-12-18","titulo":"Reuni\u00f3n Beer Runners en Ponferrada","minidesc":"Martes y jueves, a las 20:35","url":"20141218ponferradajueves.jpg","descripcion":"Los Beer Runners de Ponferrada se re\u00fanen todos los martes y jueves a las 20:35 en el Mercado de Abastos del mercado de Ponferrada, \u00a1y las cervezas en la Pulper\u00eda Octopus!","tagid":"1","activo":"1","fx_update":"2014-11-28 13:31:50","id_tag":"1","tag":"Sin tag"},{"id":"14","fecha":"2014-12-23","titulo":"Quedada en Madrid","minidesc":"Todos los martes a las 20:00 en El Retiro","url":"20141202madridmartes.jpg","descripcion":"Nos vemos todos los martes a las 20:00 en la Puerta del \u00c1ngel Ca\u00eddo, en el parque de El Retiro. Y luego, siempre nos tomamos unas cervezas en el Bar Yemen.","tagid":"4","activo":"1","fx_update":"2014-12-02 11:46:43","id_tag":"4","tag":"Madrid"}],"frases":[{"rango":"0","frase":"\u00c9ste es el momento id\u00f3neo\\n\u00a1Deja las excusas y ponte a correr!"},{"rango":"0","frase":"No podemos correr por ti.\\nDirecci\u00f3n General de Beer Runners"},{"rango":"0","frase":"Si no se usa, esta App se oxida\u2026\\n\u00a1Ponte a correr!"},{"rango":"0","frase":"\u00bfQuieres una cerveza?\\n\u00a1Empieza a correr!"},{"rango":"1","frase":"Calentar antes y estirar despu\u00e9s es lo m\u00e1s importante...\\n\u00a1Hay que estar perfecto para ir al bar!"},{"rango":"1","frase":"\u00a1Qui\u00e9n lo dir\u00eda, ya est\u00e1s en ello!\\nLa cerveza est\u00e1 m\u00e1s cerca de lo que parece\u2026"},{"rango":"1","frase":"\u00a1Ya has empezado, que es lo m\u00e1s dif\u00edcil!\\nCalienta antes y estira al terminar para evitar lesiones"},{"rango":"2","frase":"\u00a1Las agujetas ya son cosas del pasado!\\nSigue corriendo, esa cerveza tan fresquita te est\u00e1 esperando"},{"rango":"2","frase":"\u00a1Todav\u00eda no lo has dejado!\\nQuiz\u00e1s seas un aut\u00e9ntico Beer Runner..."},{"rango":"3","frase":"El camarero te est\u00e1 esperando\u2026\\npara servirte una cerveza!"},{"rango":"3","frase":"\u00a1Has conseguido dos cifras en tu casillero!\\nTe mereces esa cerveza"},{"rango":"4","frase":"Los kil\u00f3metros van quedando m\u00e1s lejos y la cerveza m\u00e1s cerca.\\n\u00a1Est\u00e1s hecho todo un Beer Runner!"},{"rango":"4","frase":"\u00a1Qui\u00e9n te ha visto y qui\u00e9n te ve!\\nBueno, te ven los Beer Runners... \u00a1Y el camarero!"},{"rango":"5","frase":"Ha llegado el momento de disfrutar de un par de cervezas.\\n\u00a1Te las has ganado!"},{"rango":"5","frase":"\u00a1Conseguido!\\nT\u00f3mate un par de cervezas con los Beer Runners que puedan seguirte"},{"rango":"6","frase":"\u00a1Felicidades Beer Runner!\\nHas superado todos tus l\u00edmites y el bar es tu meta"},{"rango":"6","frase":"\u00a1Lo has logrado, te encanta el running!\\nCasi tanto como esas cervezas..."},{"rango":"7","frase":"\u00a1Conserva tus zapatillas!\\nAlg\u00fan d\u00eda se expondr\u00e1n en el \"Museo Beer Runners\"."},{"rango":"7","frase":"\u00a1Eres una leyenda Beer Runner!\\nLos paparazzis no te persiguen porque les dejas atr\u00e1s corriendo"},{"rango":"11","frase":"A\u00fan es pronto para apostar por ti\u2026"},{"rango":"11","frase":"Bueno, no est\u00e1 mal para un novato"},{"rango":"11","frase":"Las agujetas son tus medallas"},{"rango":"11","frase":"Ma\u00f1ana un poco m\u00e1s. Ahora\u2026 piensa en tu cerveza"},{"rango":"12","frase":"Parece que vas en serio y no te vamos a tomar a broma"},{"rango":"12","frase":"\u00a1Aprieta!\\nLa cerveza est\u00e1 m\u00e1s cerca"},{"rango":"12","frase":"\u00a1Sigue d\u00e1ndole ca\u00f1a!\\nLa cerveza prometida est\u00e1 cerca"},{"rango":"13","frase":"\u00a1Te mereces una cerveza!\\nEres todo un Beer Runner"},{"rango":"13","frase":"\u00a1Una cerveza!\\nApost\u00e1bamos por ti desde el principio\u2026"},{"rango":"13","frase":"\u00a1Una cerveza!\\nSeguro que no es la primera ni la \u00faltima\u2026"},{"rango":"13","frase":"\u00a1Una cerveza!\\nTu nombre empieza a sonar en Beer Runners"},{"rango":"14","frase":"\u00a1Est\u00e1s imparable!\\nT\u00f3mate otra cerveza, Beer Runner"},{"rango":"14","frase":"\u00a1Otra cerveza!\\nEl camarero te empieza a reconocer"},{"rango":"14","frase":"\u00a1Qu\u00e9 bien sienta esa cervecita despu\u00e9s de correr!"},{"rango":"14","frase":"\u00bfAs\u00ed que quieres m\u00e1s?\\nVas por buen camino"},{"rango":"15","frase":"Empezaste con 1 km\u2026\\n\u00a1Y ahora tienes tu recompensa!"},{"rango":"15","frase":"\u00a1Beer Runner!\\n\u00a1Disfruta con un par de cervezas!"},{"rango":"15","frase":"\u00a1Grande!\\nTe esperan un par de cervezas bien fresquitas"},{"rango":"15","frase":"\u00a1Tienes un buen par! (De cervezas, decimos)"},{"rango":"15","frase":"\u00a1Un par de cervezas para el hijo del viento!"},{"rango":"16","frase":"Eres el orgullo de Beer Runners.\\n\u00a1Una cerveza, camarero!"},{"rango":"16","frase":"\u00a1Beer Runner! \u00a1Eres el elegido!"},{"rango":"16","frase":"\u00a1El camarero ha puesto tu nombre al bar!"},{"rango":"16","frase":"\u00a1Eres un profeta Beer Runner!"},{"rango":"16","frase":"\u00a1Eres una m\u00e1quina Beer Runner!\\n\u00a1Un par de cervezas!"},{"rango":"16","frase":"\u00a1La copa (de cerveza) es tuya!"},{"rango":"16","frase":"\u00a1Las leyendas sobre ti corren tanto como t\u00fa!"},{"rango":"16","frase":"\u00a1Siempre cre\u00edmos en ti!\\n(o casi siempre)"},{"rango":"16","frase":"\u00a1T\u00fa corres por la carretera y la cerveza corre por tu copa!"},{"rango":"16","frase":"\u00a1Ya eres 50% Beer 50% Runner!"}]}}